{
  "connections": [
    ["hub", "vault"],
    ["hub", "proxy"],
    ["proxy", "oberon"]
  ],
  "servers": [
    {
      "name": "proxy",
      "host": "135.181.97.91",
      "location": "Helsinki, FI",
      "lat": 60.170,
      "lon": 24.930,
      "role": "Proxy"
    },
    {
      "name": "oberon",
      "host": "135.181.217.55",
      "location": "Helsinki, FI",
      "lat": 60.185,
      "lon": 24.955,
      "role": "Server"
    },
    {
      "name": "vault",
      "host": "192.168.1.231",
      "location": "Liège, BE",
      "lat": 50.820,
      "lon": 5.600,
      "role": "Storage"
    },
    {
      "name": "hub",
      "host": "192.168.1.232",
      "location": "Liège, BE",
      "lat": 50.835,
      "lon": 5.635,
      "role": "Gateway"
    },
    {
      "name": "tpot",
      "host": "45.134.226.241",
      "location": "Karlsruhe, DE",
      "lat": 49.007,
      "lon": 8.404,
      "role": "Honeypot"
    }
  ]
}
